name,latitude,longitude
graf_moltke_straße_ostseite,53.0778,8.833
graf_moltke_straße_westseite,53.0781,8.8328
hastedter_bruckenstraße,53.0612,8.8528
langemarckstraße_ostseite,53.0764,8.7974
langemarckstraße_westseite,53.0765,8.7969
osterdeich,53.0693,8.8198
radweg_kleine_weser,53.066,8.8073
schwachhauser_ring,53.0891,8.8409
wachmannstraße_auswarts_sud,53.0845,8.8263
wachmannstraße_einwarts_nord,53.0847,8.8264
wilhelm_kaisen_brucke_ost,53.0722,8.804
wilhelm_kaisen_brucke_west,53.0726,8.804
